[
  {
    "title": "Higher Standards - Manhattan",
    "description": "Premium cannabis dispensary in the heart of NYC carrying Skyworld Cannabis products",
    "street": "123 Broadway",
    "city": "New York",
    "state": "NY",
    "postal_code": "10001",
    "country": "United States",
    "lat": "40.7505",
    "lng": "-73.9910",
    "phone": "(212) 555-0123",
    "website": "https://higherstandards-nyc.com",
    "email": "info@higherstandards-nyc.com",
    "open_hours": "Mon-Sat: 10am-9pm, Sun: 12pm-8pm",
    "categories": ["Dispensary", "Delivery"],
    "marker_id": "1",
    "is_skyworld_partner": true,
    "skyworld_products": ["flower", "pre-roll"],
    "priority": 1
  },
  {
    "title": "Green Leaf Collective - Brooklyn",
    "description": "Community-focused cannabis retailer serving Brooklyn with Skyworld Cannabis selection",
    "street": "456 Atlantic Avenue",
    "city": "Brooklyn", 
    "state": "NY",
    "postal_code": "11217",
    "country": "United States",
    "lat": "40.6892",
    "lng": "-73.9442",
    "phone": "(718) 555-0456",
    "website": "https://greenleafcollective.com",
    "email": "hello@greenleafcollective.com",
    "open_hours": "Daily: 9am-10pm",
    "categories": ["Dispensary"],
    "marker_id": "1",
    "is_skyworld_partner": true,
    "skyworld_products": ["flower", "pre-roll", "concentrate"],
    "priority": 1
  },
  {
    "title": "Empire Cannabis Co. - Albany",
    "description": "New York's premier cannabis destination in the capital region featuring Skyworld Cannabis",
    "street": "789 State Street",
    "city": "Albany",
    "state": "NY", 
    "postal_code": "12203",
    "country": "United States",
    "lat": "42.6526",
    "lng": "-73.7562",
    "phone": "(518) 555-0789",
    "website": "https://empirecannabisco.com",
    "email": "contact@empirecannabisco.com",
    "open_hours": "Mon-Thu: 10am-8pm, Fri-Sat: 10am-9pm, Sun: 11am-7pm",
    "categories": ["Dispensary", "Medical"],
    "marker_id": "1",
    "is_skyworld_partner": true,
    "skyworld_products": ["flower"],
    "priority": 2
  },
  {
    "title": "Rochester Relief - Rochester",
    "description": "Medical and recreational cannabis serving Western NY with Skyworld Cannabis products",
    "street": "321 East Avenue",
    "city": "Rochester",
    "state": "NY",
    "postal_code": "14604", 
    "country": "United States",
    "lat": "43.1566",
    "lng": "-77.6088",
    "phone": "(585) 555-0321",
    "website": "https://rochesterrelief.com",
    "email": "info@rochesterrelief.com",
    "open_hours": "Mon-Sat: 9am-9pm, Sun: 10am-8pm",
    "categories": ["Dispensary", "Medical", "Delivery"],
    "marker_id": "1",
    "is_skyworld_partner": true,
    "skyworld_products": ["flower", "pre-roll"],
    "priority": 2
  },
  {
    "title": "Buffalo Bud Company - Buffalo",
    "description": "Buffalo's friendliest cannabis retailer carrying premium Skyworld Cannabis",
    "street": "654 Elmwood Avenue",
    "city": "Buffalo",
    "state": "NY",
    "postal_code": "14222",
    "country": "United States", 
    "lat": "42.9017",
    "lng": "-78.8487",
    "phone": "(716) 555-0654",
    "website": "https://buffalobud.com",
    "email": "hello@buffalobud.com",
    "open_hours": "Daily: 10am-9pm",
    "categories": ["Dispensary"],
    "marker_id": "1",
    "is_skyworld_partner": true,
    "skyworld_products": ["flower", "pre-roll"],
    "priority": 2
  },
  {
    "title": "Syracuse Select - Syracuse", 
    "description": "Central NY's premium cannabis experience featuring Skyworld Cannabis strains",
    "street": "987 South Salina Street",
    "city": "Syracuse",
    "state": "NY",
    "postal_code": "13202",
    "country": "United States",
    "lat": "43.0391",
    "lng": "-76.1474",
    "phone": "(315) 555-0987",
    "website": "https://syracuseselect.com",
    "email": "info@syracuseselect.com",
    "open_hours": "Mon-Sat: 10am-8pm, Sun: 12pm-6pm",
    "categories": ["Dispensary", "Medical"],
    "marker_id": "1",
    "is_skyworld_partner": true,
    "skyworld_products": ["flower"],
    "priority": 3
  }
]